{
  "version": 0.6,
  "generator": "Overpass API 0.7.56.9 76e5016d",
  "osm3s": {
    "timestamp_osm_base": "2021-04-23T11:13:43Z",
    "timestamp_areas_base": "2021-04-23T10:07:27Z",
    "copyright": "The data included in this document is from www.openstreetmap.org. The data is made available under ODbL."
  },
  "elements": [

{
  "type": "node",
  "id": 248015151,
  "lat": 51.0717376,
  "lon": 4.4634380
},
{
  "type": "node",
  "id": 248015152,
  "lat": 51.0715184,
  "lon": 4.4634358
},
{
  "type": "node",
  "id": 248015169,
  "lat": 51.0705878,
  "lon": 4.4644820
},
{
  "type": "node",
  "id": 1133028722,
  "lat": 51.0698909,
  "lon": 4.4683568
},
{
  "type": "node",
  "id": 1142388602,
  "lat": 51.0696865,
  "lon": 4.4646642
},
{
  "type": "node",
  "id": 1147737239,
  "lat": 51.0691504,
  "lon": 4.4648032
},
{
  "type": "node",
  "id": 1282650175,
  "lat": 51.0711015,
  "lon": 4.4634426
},
{
  "type": "node",
  "id": 1720383255,
  "lat": 51.0694958,
  "lon": 4.4663828
},
{
  "type": "node",
  "id": 1720383277,
  "lat": 51.0697070,
  "lon": 4.4673735
},
{
  "type": "node",
  "id": 1720383446,
  "lat": 51.0715185,
  "lon": 4.4634359
},
{
  "type": "node",
  "id": 1720383453,
  "lat": 51.0716773,
  "lon": 4.4634390
},
{
  "type": "node",
  "id": 1720383480,
  "lat": 51.0720800,
  "lon": 4.4650289
},
{
  "type": "node",
  "id": 1720383481,
  "lat": 51.0720986,
  "lon": 4.4634984
},
{
  "type": "node",
  "id": 1720383487,
  "lat": 51.0721472,
  "lon": 4.4636485
},
{
  "type": "node",
  "id": 1720383490,
  "lat": 51.0722730,
  "lon": 4.4684907
},
{
  "type": "node",
  "id": 1720383491,
  "lat": 51.0722688,
  "lon": 4.4679013
},
{
  "type": "node",
  "id": 1720383492,
  "lat": 51.0723126,
  "lon": 4.4691700
},
{
  "type": "node",
  "id": 1720383493,
  "lat": 51.0723338,
  "lon": 4.4669416
},
{
  "type": "node",
  "id": 1720383504,
  "lat": 51.0724682,
  "lon": 4.4662894
},
{
  "type": "node",
  "id": 1720383510,
  "lat": 51.0726747,
  "lon": 4.4652432
},
{
  "type": "node",
  "id": 3808764697,
  "lat": 51.0699253,
  "lon": 4.4645985
},
{
  "type": "node",
  "id": 3808764699,
  "lat": 51.0699670,
  "lon": 4.4645406
},
{
  "type": "node",
  "id": 4732752055,
  "lat": 51.0721393,
  "lon": 4.4635638
},
{
  "type": "node",
  "id": 4732788229,
  "lat": 51.0695792,
  "lon": 4.4669876
},
{
  "type": "node",
  "id": 4732788243,
  "lat": 51.0696571,
  "lon": 4.4671831
},
{
  "type": "node",
  "id": 4732788270,
  "lat": 51.0706208,
  "lon": 4.4634503
},
{
  "type": "node",
  "id": 4732834596,
  "lat": 51.0723937,
  "lon": 4.4666508
},
{
  "type": "node",
  "id": 4732834597,
  "lat": 51.0726187,
  "lon": 4.4655268
},
{
  "type": "node",
  "id": 4732856630,
  "lat": 51.0694459,
  "lon": 4.4665377
},
{
  "type": "node",
  "id": 4732856631,
  "lat": 51.0694765,
  "lon": 4.4665015
},
{
  "type": "node",
  "id": 4732856632,
  "lat": 51.0694963,
  "lon": 4.4664529
},
{
  "type": "node",
  "id": 4732856633,
  "lat": 51.0694393,
  "lon": 4.4666735
},
{
  "type": "node",
  "id": 4732856634,
  "lat": 51.0694525,
  "lon": 4.4667042
},
{
  "type": "node",
  "id": 4732856635,
  "lat": 51.0694672,
  "lon": 4.4667599
},
{
  "type": "node",
  "id": 4732856636,
  "lat": 51.0695051,
  "lon": 4.4668167
},
{
  "type": "node",
  "id": 4732856637,
  "lat": 51.0695535,
  "lon": 4.4668435
},
{
  "type": "node",
  "id": 4732884644,
  "lat": 51.0724314,
  "lon": 4.4702041
},
{
  "type": "node",
  "id": 4732884645,
  "lat": 51.0719903,
  "lon": 4.4700661
},
{
  "type": "node",
  "id": 4732884646,
  "lat": 51.0717680,
  "lon": 4.4696262
},
{
  "type": "node",
  "id": 4732884647,
  "lat": 51.0714699,
  "lon": 4.4691052
},
{
  "type": "node",
  "id": 4739439995,
  "lat": 51.0719889,
  "lon": 4.4692348
},
{
  "type": "node",
  "id": 4739439996,
  "lat": 51.0719501,
  "lon": 4.4692214
},
{
  "type": "node",
  "id": 4739439997,
  "lat": 51.0719299,
  "lon": 4.4693153
},
{
  "type": "node",
  "id": 4739439998,
  "lat": 51.0719400,
  "lon": 4.4694440
},
{
  "type": "node",
  "id": 4739439999,
  "lat": 51.0719720,
  "lon": 4.4696318
},
{
  "type": "node",
  "id": 4739440000,
  "lat": 51.0720142,
  "lon": 4.4696586
},
{
  "type": "node",
  "id": 4739440001,
  "lat": 51.0720394,
  "lon": 4.4695701
},
{
  "type": "node",
  "id": 4739440002,
  "lat": 51.0720344,
  "lon": 4.4694467
},
{
  "type": "node",
  "id": 4739440003,
  "lat": 51.0720276,
  "lon": 4.4693421
},
{
  "type": "node",
  "id": 4739440004,
  "lat": 51.0720108,
  "lon": 4.4692616
},
{
  "type": "way",
  "id": 23899764,
  "nodes": [
    259045339,
    3808763853,
    5112795539,
    3808764664,
    259045404,
    259045405,
    259045406,
    259045407,
    259045408,
    259045913,
    259045914,
    259045915
  ],
  "tags": {
    "bicycle": "yes",
    "foot": "yes",
    "highway": "path",
    "surface": "unpaved",
    "vehicle": "no"
  }
},
{
  "type": "way",
  "id": 23899827,
  "nodes": [
    259045915,
    259045916,
    259045932,
    259045933,
    259045934,
    1282650167,
    259045935,
    1282650271,
    1282650262,
    247942585
  ],
  "tags": {
    "bicycle": "yes",
    "foot": "yes",
    "highway": "path",
    "surface": "unpaved",
    "vehicle": "no"
  }
},
{
  "type": "way",
  "id": 26787786,
  "nodes": [
    259045345,
    3808763834,
    1711849230
  ],
  "tags": {
    "bicycle": "yes",
    "highway": "footway"
  }
},
{
  "type": "way",
  "id": 112792341,
  "nodes": [
    1281348587,
    6028032169,
    1281348579
  ],
  "tags": {
    "highway": "path",
    "surface": "unpaved",
    "tracktype": "grade3"
  }
},
{
  "type": "way",
  "id": 112792342,
  "nodes": [
    259045915,
    1720383426
  ],
  "tags": {
    "highway": "track",
    "surface": "unpaved",
    "tracktype": "grade3"
  }
},
{
  "type": "way",
  "id": 112793069,
  "nodes": [
    247942576,
    1281365913
  ],
  "tags": {
    "highway": "path",
    "surface": "unpaved",
    "tracktype": "grade4"
  }
},
{
  "type": "way",
  "id": 112793070,
  "nodes": [
    1281348579,
    1281365916,
    4732752058,
    1281365936,
    1739180781
  ],
  "tags": {
    "bicycle": "no",
    "highway": "path",
    "horse": "no",
    "surface": "unpaved",
    "tracktype": "grade4"
  }
},
{
  "type": "way",
  "id": 112793072,
  "nodes": [
    1281365913,
    1281365929,
    1282650227,
    1282650211,
    4732752070,
    1282650246,
    4732752071,
    1282650286,
    1282650191,
    4732752073,
    4732752074,
    1282650237,
    4732752075,
    4732752077,
    1720383501,
    2932586202,
    1282650278,
    1282650172,
    1720383508,
    1282650262
  ],
  "tags": {
    "highway": "path",
    "surface": "unpaved",
    "tracktype": "grade5"
  }
},
{
  "type": "way",
  "id": 112966404,
  "nodes": [
    1282650183,
    140458399
  ],
  "tags": {
    "highway": "track",
    "surface": "compacted",
    "tracktype": "grade2"
  }
},
{
  "type": "way",
  "id": 112966406,
  "nodes": [
    1282650260,
    1282650289,
    1282650205,
    1282650244
  ],
  "tags": {
    "highway": "track",
    "tracktype": "grade4"
  }
},
{
  "type": "way",
  "id": 112966408,
  "nodes": [
    1282650244,
    1282650268,
    1282650160,
    1282650213,
    1282650256,
    1282650287,
    1282650193,
    1282650240,
    1147737377,
    1282650280,
    2911089108,
    6028032178,
    304521563
  ],
  "tags": {
    "highway": "path",
    "surface": "unpaved",
    "tracktype": "grade5"
  }
},
{
  "type": "way",
  "id": 112966411,
  "nodes": [
    247944363,
    1282650171,
    1282650223,
    1282650225,
    1282650219,
    1282650284,
    1282650226,
    1282650217,
    1282650285,
    1282650185,
    1282650183
  ],
  "tags": {
    "highway": "path",
    "horse": "no",
    "tracktype": "grade3"
  }
},
{
  "type": "way",
  "id": 113042295,
  "nodes": [
    1281365913,
    1281365930,
    1281365932,
    1281365924,
    1281365921,
    1281365905,
    1281348579
  ],
  "tags": {
    "highway": "path",
    "surface": "unpaved",
    "tracktype": "grade4"
  }
},
{
  "type": "way",
  "id": 113055246,
  "nodes": [
    1281365931,
    1283265365,
    1283265375,
    1283265362,
    1283265368,
    1283265366,
    1283265363,
    1283265367,
    287004459
  ],
  "tags": {
    "bicycle": "yes",
    "foot": "yes",
    "highway": "path",
    "surface": "unpaved",
    "tracktype": "grade3",
    "traffic_sign": "f99a"
  }
},
{
  "type": "way",
  "id": 115188819,
  "nodes": [
    1302463194,
    1302463123
  ],
  "tags": {
    "highway": "path",
    "surface": "asphalt",
    "tracktype": "grade1"
  }
},
{
  "type": "way",
  "id": 124946023,
  "nodes": [
    1388999492,
    267534692,
    1376638465,
    1376638470,
    1376638472,
    1376638475,
    1376638478,
    1376638492,
    1376638495,
    267534693,
    1376638496,
    1376638499,
    7417908200
  ],
  "tags": {
    "foot": "yes",
    "highway": "path",
    "name": "Oude Spoorwegberm"
  }
},
{
  "type": "way",
  "id": 159972414,
  "nodes": [
    1147737239,
    1142388602,
    3808764697,
    3808764699,
    248015169,
    4732788270,
    1282650175,
    1720383446,
    248015152,
    1720383453,
    248015151,
    1720383481,
    4732752055,
    1720383487,
    1720383480,
    1720383510,
    4732834597,
    1720383504,
    4732834596,
    1720383493,
    1720383491,
    1720383490,
    1720383492,
    4732884644,
    4732884645,
    4732884646,
    4732884647,
    1133028722,
    1720383277,
    4732788243,
    4732788229,
    4732856637,
    4732856636,
    4732856635,
    4732856634,
    4732856633,
    4732856630,
    4732856631,
    4732856632,
    1720383255,
    1147737239
  ],
  "tags": {
    "leisure": "park",
    "name": "Domein Roosendael",
    "website": "http://www.roosendael.be/toegankelijkheid"
  }
},
{
  "type": "way",
  "id": 159972429,
  "nodes": [
    1720383366,
    7599671075,
    1720383341,
    1720383334,
    1720383326,
    1720383335,
    1720383356,
    1720383384,
    1720383411,
    1720383430,
    1720383439,
    1720383426
  ],
  "tags": {
    "highway": "footway",
    "surface": "ground",
    "tracktype": "grade5"
  }
},
{
  "type": "way",
  "id": 159972431,
  "nodes": [
    4732788244,
    1720383300,
    1720383304,
    1720383309,
    1720383323,
    1720383329,
    2932586044,
    1720383354,
    1720383413,
    1720383422,
    1798045450,
    2932586087,
    1720383462,
    4732752085,
    4732752084,
    1720383463,
    4732752082,
    4732752083,
    1720383484,
    4732752081,
    1720383489,
    1720383496,
    4732752076,
    1720383501
  ],
  "tags": {
    "highway": "footway",
    "surface": "earth"
  }
},
{
  "type": "way",
  "id": 159972434,
  "nodes": [
    1720383317,
    1720383335,
    6480122919,
    6480122918,
    6480122917,
    1720383426
  ],
  "tags": {
    "highway": "footway",
    "surface": "ground",
    "tracktype": "grade5"
  }
},
{
  "type": "way",
  "id": 161964852,
  "nodes": [
    1720383335,
    1281365931
  ],
  "tags": {
    "highway": "footway",
    "surface": "ground",
    "tracktype": "grade5"
  }
},
{
  "type": "way",
  "id": 161964854,
  "nodes": [
    1739180781,
    1739180779
  ],
  "tags": {
    "bicycle": "no",
    "bridge": "yes",
    "highway": "path",
    "surface": "unpaved",
    "tracktype": "grade4"
  }
},
{
  "type": "way",
  "id": 161964857,
  "nodes": [
    4732828361,
    4732828362,
    4732828363,
    1281365911,
    4732828364,
    4732828365,
    1281365928,
    4732828366,
    1281365926,
    1281365915,
    1281365917,
    1281365920
  ],
  "tags": {
    "bicycle": "no",
    "highway": "path",
    "horse": "no",
    "surface": "compacted",
    "tracktype": "grade4"
  }
},
{
  "type": "way",
  "id": 217919413,
  "nodes": [
    1798045467,
    2272256605,
    2272256604,
    2272256601,
    2272256600,
    4732751545,
    4732751618,
    2272256598
  ],
  "tags": {
    "highway": "path",
    "surface": "unpaved"
  }
},
{
  "type": "way",
  "id": 287506409,
  "nodes": [
    2911088640,
    4884131145,
    8104977790,
    4884131151
  ],
  "tags": {
    "highway": "track"
  }
},
{
  "type": "way",
  "id": 289709398,
  "nodes": [
    2932586080,
    2932586082
  ],
  "tags": {
    "bridge": "yes",
    "highway": "footway",
    "layer": "1",
    "surface": "wood",
    "tracktype": "grade5"
  }
},
{
  "type": "way",
  "id": 289709400,
  "nodes": [
    2932586082,
    2932586087
  ],
  "tags": {
    "highway": "footway",
    "surface": "ground",
    "tracktype": "grade5"
  }
},
{
  "type": "way",
  "id": 289709402,
  "nodes": [
    2932586047,
    2932586049
  ],
  "tags": {
    "bridge": "yes",
    "highway": "footway",
    "layer": "1",
    "surface": "wood",
    "tracktype": "grade5"
  }
},
{
  "type": "way",
  "id": 289709404,
  "nodes": [
    2932586044,
    2932586047
  ],
  "tags": {
    "highway": "footway",
    "surface": "ground",
    "tracktype": "grade5"
  }
},
{
  "type": "way",
  "id": 289709406,
  "nodes": [
    2932586049,
    2932586052,
    2932586053,
    2932586060,
    2932586064,
    2932586067,
    2932586071,
    2932586076,
    2932586080
  ],
  "tags": {
    "highway": "footway",
    "surface": "ground",
    "tracktype": "grade5"
  }
},
{
  "type": "way",
  "id": 292870724,
  "nodes": [
    2964257818,
    2964257819,
    2964257820
  ],
  "tags": {
    "bicycle": "no",
    "highway": "path",
    "horse": "no",
    "incline": "up",
    "lit": "no",
    "surface": "unpaved",
    "trail_visibility": "bad",
    "width": "1"
  }
},
{
  "type": "way",
  "id": 423778677,
  "nodes": [
    1720383426,
    1720383366,
    1281348605
  ],
  "tags": {
    "highway": "track",
    "surface": "unpaved",
    "tracktype": "grade3"
  }
},
{
  "type": "way",
  "id": 447864475,
  "nodes": [
    2964257820,
    4449266890
  ],
  "tags": {
    "bicycle": "no",
    "bridge": "yes",
    "highway": "path",
    "horse": "no",
    "layer": "1",
    "lit": "no",
    "surface": "wood"
  }
},
{
  "type": "way",
  "id": 447864478,
  "nodes": [
    4449266890,
    4449253395,
    4449253393
  ],
  "tags": {
    "bicycle": "no",
    "highway": "path",
    "horse": "no",
    "incline": "up",
    "lit": "no",
    "surface": "unpaved",
    "trail_visibility": "bad",
    "width": "1"
  }
},
{
  "type": "way",
  "id": 470180618,
  "nodes": [
    4643971636,
    4732751619,
    4732751620,
    4643971637,
    4643971638,
    4643971639,
    4643971640,
    4732752021,
    4643971641,
    4643971642
  ],
  "tags": {
    "highway": "path",
    "surface": "compacted"
  }
},
{
  "type": "way",
  "id": 470180620,
  "nodes": [
    4643971651,
    4732878210,
    4732878211,
    4643971636,
    1281365919,
    2272256589,
    4732751562,
    1798045446,
    2272256598,
    1281365925,
    2272256599,
    1798045460,
    1798045461,
    1798045459,
    1798045456,
    4732828367,
    1798045455,
    1798045453,
    1798045449,
    1798045448,
    1798045446
  ],
  "tags": {
    "highway": "track",
    "name": "Rozendaal",
    "opening_hours": "Mo-Su 08:30-sunset",
    "surface": "compacted"
  }
},
{
  "type": "way",
  "id": 470505863,
  "nodes": [
    1798045451,
    4643971646,
    1798045452,
    1798045454,
    4732751588,
    1798045457,
    1798045458,
    4732751553,
    4732751552,
    1798045462,
    4732751551,
    1798045464,
    1798045466,
    4732751554,
    1798045468,
    1798045469,
    4732751555,
    4732751556,
    1798045467,
    2272256606,
    1798045465
  ],
  "tags": {
    "highway": "path",
    "name": "Rozendaal",
    "surface": "unpaved",
    "tracktype": "grade3"
  }
},
{
  "type": "way",
  "id": 480273567,
  "nodes": [
    4732751550,
    4732751549,
    4732751548,
    4732751547,
    4732751546,
    4732751545
  ],
  "tags": {
    "highway": "path"
  }
},
{
  "type": "way",
  "id": 480273568,
  "nodes": [
    4732751560,
    4732751559,
    4732751558,
    4732751583,
    4732751582,
    4732751557,
    4732751550,
    4732751560
  ],
  "tags": {
    "leisure": "pitch",
    "sport": "basketball",
    "surface": "concrete"
  }
},
{
  "type": "way",
  "id": 480273569,
  "nodes": [
    4732751582,
    4732751581,
    4732751580,
    4732751579,
    4732751578,
    4732751577,
    4732751576,
    4732751575,
    4732751574,
    4732751573,
    4732751572,
    4732751571,
    4732751570,
    4732751569,
    4732751568,
    4732751567,
    4732751566,
    4732751565,
    4732751564,
    4732751563,
    4732751562
  ],
  "tags": {
    "highway": "path"
  }
},
{
  "type": "way",
  "id": 480273570,
  "nodes": [
    4732751588,
    4732751587,
    4732751586,
    4732751585,
    4732751584,
    4732751583
  ],
  "tags": {
    "highway": "path"
  }
},
{
  "type": "way",
  "id": 480273571,
  "nodes": [
    1281365926,
    4732751591,
    4732751590,
    4732751589
  ],
  "tags": {
    "highway": "path",
    "surface": "compacted"
  }
},
{
  "type": "way",
  "id": 480281030,
  "nodes": [
    1798045465,
    4732751617,
    1798045463,
    1798045460
  ],
  "tags": {
    "highway": "path",
    "name": "Rozendaal",
    "surface": "compacted",
    "tracktype": "grade3"
  }
},
{
  "type": "way",
  "id": 480281031,
  "nodes": [
    4643971642,
    4732752022,
    4732752023,
    4732752024,
    4643971643,
    4643971644,
    4643971645,
    4643971646
  ],
  "tags": {
    "highway": "path"
  }
},
{
  "type": "way",
  "id": 480281032,
  "nodes": [
    1739180779,
    4732828360,
    4732828361
  ],
  "tags": {
    "bicycle": "no",
    "highway": "path",
    "horse": "no",
    "surface": "unpaved",
    "tracktype": "grade4"
  }
},
{
  "type": "way",
  "id": 480282781,
  "nodes": [
    1720383308,
    1720383302,
    4732788244
  ],
  "tags": {
    "highway": "path"
  }
},
{
  "type": "way",
  "id": 480285851,
  "nodes": [
    4732878197,
    4732878196,
    4732878195,
    4732878194,
    4732878193,
    4732878192,
    4732878191,
    4732878190,
    1798045449
  ],
  "tags": {
    "highway": "path"
  }
},
{
  "type": "way",
  "id": 480285852,
  "nodes": [
    4732878210,
    4732886990,
    4732878209,
    4732878208,
    4732886986,
    4732878207,
    4732878206,
    4732878205,
    4732878204,
    4732878203,
    4732878202,
    4732878201,
    4732878200,
    4732878199,
    4732878198
  ],
  "tags": {
    "highway": "path"
  }
},
{
  "type": "way",
  "id": 480286945,
  "nodes": [
    4732886986,
    4732886987,
    4732886985
  ],
  "tags": {
    "highway": "path"
  }
},
{
  "type": "way",
  "id": 480997998,
  "nodes": [
    4739440004,
    4739440003,
    4739440002,
    4739440001,
    4739440000,
    4739439999,
    4739439998,
    4739439997,
    4739439996,
    4739439995,
    4739440004
  ],
  "tags": {
    "landuse": "grass"
  }
},
{
  "type": "way",
  "id": 496742822,
  "nodes": [
    4884131146,
    6478856108,
    6478856107,
    6478856106,
    4884131144
  ],
  "tags": {
    "highway": "path"
  }
},
{
  "type": "way",
  "id": 496742823,
  "nodes": [
    4884131146,
    4884131145
  ],
  "tags": {
    "highway": "path"
  }
},
{
  "type": "way",
  "id": 639787278,
  "nodes": [
    6028032169,
    6028032170,
    6028032171,
    6028032172,
    6028032173,
    6028032174,
    6028032175,
    6028032176,
    6028032177,
    6028032178
  ],
  "tags": {
    "highway": "path"
  }
},
{
  "type": "way",
  "id": 639787279,
  "nodes": [
    6028032172,
    1147737377
  ],
  "tags": {
    "highway": "path"
  }
},
{
  "type": "way",
  "id": 793303928,
  "nodes": [
    7417908199,
    1376638500,
    1376638502,
    1376638503,
    1376638505,
    1376638507,
    2852646926,
    1376638509,
    1376638510,
    1376638511,
    1376638512,
    1376638514,
    1376638528
  ],
  "tags": {
    "foot": "yes",
    "highway": "path",
    "name": "Oude Spoorwegberm"
  }
},
{
  "type": "way",
  "id": 793303929,
  "nodes": [
    7417908200,
    7417908199
  ],
  "tags": {
    "bridge": "yes",
    "foot": "yes",
    "highway": "path",
    "layer": "1",
    "name": "Oude Spoorwegberm - brug over Scheibeek"
  }
},
{
  "type": "way",
  "id": 867703459,
  "nodes": [
    8088005964,
    8087991792
  ],
  "tags": {
    "bicycle": "no",
    "highway": "path",
    "horse": "no",
    "incline": "up",
    "lit": "no",
    "surface": "unpaved",
    "trail_visibility": "bad",
    "width": "1"
  }
},
{
  "type": "area",
  "id": 2559972414,
  "tags": {
    "leisure": "park",
    "name": "Domein Roosendael",
    "website": "http://www.roosendael.be/toegankelijkheid"
  }
},
{
  "type": "area",
  "id": 3600052411,
  "tags": {
    "ISO3166-1": "BE",
    "ISO3166-1:alpha2": "BE",
    "ISO3166-1:alpha3": "BEL",
    "ISO3166-1:numeric": "056",
    "TMC:cid_58:tabcd_1:Class": "Area",
    "TMC:cid_58:tabcd_1:LCLversion": "8.00",
    "TMC:cid_58:tabcd_1:LocationCode": "3",
    "admin_level": "2",
    "alt_name:ay": "Bilgasuyu",
    "alt_name:bar": "Bejgien",
    "alt_name:ckb": "بلژیک",
    "alt_name:eo": "Belgujo",
    "alt_name:frp": "Bèlg·ica",
    "alt_name:fur": "Belgjiche;Belgje",
    "alt_name:fy": "België;it Belzelân",
    "alt_name:kbd": "Белгэ",
    "alt_name:ksh": "Belgien",
    "alt_name:ku": "Belcîka",
    "alt_name:la": "Belgium",
    "alt_name:li": "Belzjiek",
    "alt_name:mzn": "بلجیک",
    "alt_name:qu": "Bilgasuyu",
    "alt_name:rw": "Ububirigi",
    "alt_name:so": "Belgium",
    "alt_name:war": "Bélgica",
    "boundary": "administrative",
    "currency": "EUR",
    "flag": "http://upload.wikimedia.org/wikipedia/commons/6/65/Flag_of_Belgium.svg",
    "int_name": "Belgium",
    "name": "België / Belgique / Belgien",
    "name:ace": "Bèlgia",
    "name:ady": "Белгие",
    "name:af": "België",
    "name:ak": "Belgium",
    "name:als": "Belgie",
    "name:am": "ቤልጅግ",
    "name:an": "Belchica",
    "name:ang": "Belgice",
    "name:ar": "بلجيكا",
    "name:arc": "ܒܠܓܝܩܐ",
    "name:arz": "بلجيكا",
    "name:ast": "Bélxica",
    "name:av": "Бе́льгия",
    "name:ay": "Bilkiya",
    "name:az": "Belçika",
    "name:azb": "بلژیک",
    "name:ba": "Бе́льгия",
    "name:bar": "Bäigien",
    "name:bat-smg": "Belgėjė",
    "name:bcl": "Belhika",
    "name:be": "Бeльгія",
    "name:be-tarask": "Бэ́льгія",
    "name:bg": "Белгия",
    "name:bh": "बेल्जियम",
    "name:bi": "Beljiom",
    "name:bm": "Bɛliziki",
    "name:bn": "বেলজিয়াম",
    "name:bo": "པེར་ཅིན།",
    "name:bpy": "বেলজিয়াম",
    "name:br": "Belgia",
    "name:bs": "Belgija",
    "name:bug": "Belgia",
    "name:bxr": "Бельги",
    "name:ca": "Bèlgica",
    "name:cbk-zam": "Bélgica",
    "name:cdo": "Bī-lé-sì",
    "name:ce": "Бельги",
    "name:ceb": "Belhika",
    "name:chr": "ᏇᎵᏥᎥᎻ",
    "name:ckb": "بەلجیکا",
    "name:co": "Belgica",
    "name:crh": "Belçika",
    "name:cs": "Belgie",
    "name:csb": "Belgijskô",
    "name:cu": "Бє́лгїѥ",
    "name:cv": "Бельги",
    "name:cy": "Gwlad Belg",
    "name:da": "Belgien",
    "name:de": "Belgien",
    "name:din": "Beljiem",
    "name:diq": "Belçıka",
    "name:dsb": "Belgiska",
    "name:dty": "बेल्जियम",
    "name:dv": "ބެލްޖިއަމް",
    "name:dz": "བེལ་ཇིཡམ",
    "name:ee": "Belgium",
    "name:el": "Βέλγιο",
    "name:eml": "Bélgi",
    "name:en": "Belgium",
    "name:eo": "Belgio",
    "name:es": "Bélgica",
    "name:et": "Belgia",
    "name:eu": "Belgika",
    "name:ext": "Bélgica",
    "name:fa": "بلژیک",
    "name:ff": "Beljik",
    "name:fi": "Belgia",
    "name:fiu-vro": "Belgiä",
    "name:fo": "Belgia",
    "name:fr": "Belgique",
    "name:frp": "Bèlg·ique",
    "name:frr": "Bälgien",
    "name:fur": "Belgjo",
    "name:fy": "Belgje",
    "name:ga": "an Bheilg",
    "name:gag": "Belgiya",
    "name:gd": "a' Bheilg",
    "name:gl": "Bélxica",
    "name:gn": "Véyhika",
    "name:gom": "बेल्जियम",
    "name:gu": "બેલ્જિયમ",
    "name:gv": "Velg",
    "name:ha": "Beljik",
    "name:hak": "Pí-li-sṳ̀",
    "name:haw": "Pelekiuma",
    "name:he": "בֶּלְגְיָה",
    "name:hi": "बेल्जियम",
    "name:hif": "Belgium",
    "name:hr": "Belgija",
    "name:hsb": "Belgiska",
    "name:ht": "Bèljik",
    "name:hu": "Belgium",
    "name:hy": "Բելգիա",
    "name:ia": "Belgica",
    "name:id": "Belgia",
    "name:ie": "Belgia",
    "name:ig": "Belgium",
    "name:ilo": "Belhika",
    "name:io": "Belgia",
    "name:is": "Belgía",
    "name:it": "Belgio",
    "name:ja": "ベルギー",
    "name:jam": "Beljiom",
    "name:jbo": "beldjym",
    "name:jv": "Bèlgia",
    "name:ka": "ბელგია",
    "name:kaa": "Belgiya",
    "name:kab": "Biljik",
    "name:kbd": "Белгиэ",
    "name:kbp": "Pɛliziki",
    "name:kg": "Belezi",
    "name:ki": "Ubelgiji",
    "name:kk": "Бельгия",
    "name:kl": "Belgia",
    "name:km": "បែលហ្ស៉ិក",
    "name:kn": "ಬೆಲ್ಜಿಯಂ",
    "name:ko": "벨기에",
    "name:koi": "Белгия",
    "name:krc": "Бельгия",
    "name:ks": "बेल्जियम",
    "name:ksh": "Beljie",
    "name:ku": "Belçîka",
    "name:kv": "Бельгия",
    "name:kw": "Pow Belg",
    "name:ky": "Бельгия",
    "name:la": "Belgica",
    "name:lad": "Beljika",
    "name:lb": "Belsch",
    "name:lez": "Бельгия",
    "name:lg": "Bubirigi",
    "name:li": "Belsj",
    "name:lij": "Belgiò",
    "name:lmo": "Belgi",
    "name:ln": "Bɛ́ljika",
    "name:lo": "ປະເທດແບນຊິກ",
    "name:lrc": "بلجیک",
    "name:lt": "Belgija",
    "name:ltg": "Beļgeja",
    "name:lv": "Beļģija",
    "name:lzh": "比利時",
    "name:mai": "बेल्जियम",
    "name:mdf": "Бельгие",
    "name:mg": "Belzika",
    "name:mhr": "Бельгий",
    "name:mi": "Pehiamu",
    "name:mk": "Белгија",
    "name:ml": "ബെൽജിയം",
    "name:mn": "Бельги",
    "name:mr": "बेल्जियम",
    "name:ms": "Belgium",
    "name:mt": "Belġju",
    "name:mwl": "Bélgica",
    "name:my": "ဘယ်လ်ဂျီယမ်နိုင်ငံ",
    "name:myv": "Бельгия",
    "name:mzn": "بلژیک",
    "name:na": "Berdjiyum",
    "name:nah": "Belgica",
    "name:nan": "Pe̍k-ní-gī",
    "name:nap": "Belge",
    "name:nb": "Belgia",
    "name:nds": "Belgien",
    "name:nds-nl": "België",
    "name:ne": "बेल्जियम",
    "name:new": "बेल्जियम",
    "name:nl": "België",
    "name:nn": "Belgia",
    "name:no": "Belgia",
    "name:nov": "Belgia",
    "name:nrm": "Belgique",
    "name:nso": "Belgium",
    "name:oc": "Belgica",
    "name:olo": "Bel’gii",
    "name:om": "Beeljiyeem",
    "name:or": "ବେଲଜିଅମ",
    "name:os": "Бельги",
    "name:pa": "ਬੈਲਜੀਅਮ",
    "name:pag": "Belhika",
    "name:pam": "Belgika",
    "name:pap": "Bélgika",
    "name:pcd": "Bergike",
    "name:pdc": "Belgien",
    "name:pfl": "Belgje",
    "name:pi": "बेल्जियम",
    "name:pih": "Beljum",
    "name:pl": "Belgia",
    "name:pms": "Belgi",
    "name:pnb": "بیلجیم",
    "name:pnt": "Βέλγιον",
    "name:ps": "بلجیم",
    "name:pt": "Bélgica",
    "name:qu": "Bilhika",
    "name:rm": "Belgia",
    "name:rmy": "Beljiya",
    "name:rn": "Ububirigi",
    "name:ro": "Belgia",
    "name:roa-rup": "Belghia",
    "name:roa-tara": "Bèlge",
    "name:ru": "Бельгия",
    "name:rue": "Белґія",
    "name:rw": "Ububiligi",
    "name:sa": "बेल्जियम",
    "name:sah": "Бельгия",
    "name:sc": "Bèlgiu",
    "name:scn": "Belgiu",
    "name:sco": "Belgium",
    "name:sd": "بيلجيم",
    "name:se": "Belgia",
    "name:sg": "Bêleze",
    "name:sh": "Belgija",
    "name:si": "බෙල්ජියම්",
    "name:sk": "Belgicko",
    "name:sl": "Bélgija",
    "name:sm": "Peleseuma",
    "name:smn": "Belgia",
    "name:sms": "Belgia",
    "name:sn": "Belgium",
    "name:so": "Beljim",
    "name:sq": "Belgjika",
    "name:sr": "Белгија",
    "name:srn": "Belgikondre",
    "name:ss": "iBhelijiyamu",
    "name:stq": "Belgien",
    "name:su": "Bélgia",
    "name:sv": "Belgien",
    "name:sw": "Ubelgiji",
    "name:szl": "Belgijo",
    "name:ta": "பெல்ஜியம்",
    "name:te": "బెల్జియం",
    "name:tet": "Béljika",
    "name:tg": "Белгия",
    "name:th": "เบลเยียม",
    "name:ti": "ቤልጄም",
    "name:tk": "Belgiýa",
    "name:tl": "Belhika",
    "name:to": "Pelesiume",
    "name:tok": "ma Pesije",
    "name:tpi": "Beljiam",
    "name:tr": "Belçika",
    "name:ts": "Belgium",
    "name:tt": "Бе́льгия",
    "name:tum": "Belgium",
    "name:tw": "Belgium",
    "name:tzl": "Belxhíc",
    "name:udm": "Бельгия",
    "name:ug": "بېلگىيە",
    "name:uk": "Бе́льгія",
    "name:ur": "بلجئیم",
    "name:uz": "Belgiya",
    "name:vec": "Belgio",
    "name:vep": "Bel'gii",
    "name:vi": "Bỉ",
    "name:vls": "België",
    "name:vo": "Belgän",
    "name:wa": "Beldjike",
    "name:war": "Belhika",
    "name:wo": "Belsik",
    "name:wuu": "比利时",
    "name:xal": "Бельҗмудин Нутг",
    "name:xmf": "ბელგია",
    "name:yi": "בעלגיע",
    "name:yo": "Bẹ́ljíọ̀m",
    "name:yue": "比利時",
    "name:zea": "Belhië",
    "name:zh": "比利時",
    "name:zh-Hans": "比利时",
    "name:zh-Hant": "比利時",
    "name:zh_pinyin": "Bǐlìshí",
    "name:zu": "i-Belgium",
    "official_name": "Koninkrijk België / Royaume de Belgique / Königreich Belgien",
    "official_name:af": "Koninkryk van België",
    "official_name:als": "Königriich Belgie",
    "official_name:am": "የቤልጅግ መንግሥት",
    "official_name:an": "Reino de Belchica",
    "official_name:ang": "Belgice Cynerīce",
    "official_name:ar": "مملكة بلجيكا",
    "official_name:arc": "ܡܠܟܘܬܐ ܕܒܠܓܝܩܐ",
    "official_name:ast": "Reinu de Bélxica",
    "official_name:av": "Ханлъи Бе́льгия",
    "official_name:ay": "Bilhika Qhapaqsuyu",
    "official_name:az": "Belçika Krallığı",
    "official_name:azb": "بلژیک کراللیغی",
    "official_name:ba": "Бельгия Короллеге",
    "official_name:bar": "Kinigraich Bäigien",
    "official_name:bat-smg": "Belgėjės Karalīstė",
    "official_name:be": "Каралеўства Бельгія",
    "official_name:be-tarask": "Каралеўства Бельгія",
    "official_name:bg": "Кралство Белгия",
    "official_name:bm": "Bɛliziki Mansamara",
    "official_name:bn": "রাজতন্ত্রী বেলজিয়াম",
    "official_name:bo": "Kraljevina Belgija",
    "official_name:bpy": "রাজতান্ত্রিক বেলজিয়াম",
    "official_name:br": "Rouantelezh Belgia",
    "official_name:bs": "Kraljevina Belgija",
    "official_name:ca": "Regne de Bèlgica",
    "official_name:ce": "Монархи Бельги",
    "official_name:chr": "ᎤᎬᏫᏳᎯ ᎨᏒ ᎾᎿ ᎠᏲᎳᏂ",
    "official_name:co": "Regnu di Belgica",
    "official_name:crh": "Belçika Qırallığı",
    "official_name:cs": "Belgické království",
    "official_name:cu": "Кралѥ́вьство Бє́лгїѥ",
    "official_name:cy": "Teyrnas Gwlad Belg",
    "official_name:da": "Kongeriget Belgien",
    "official_name:de": "Königreich Belgien",
    "official_name:din": "Mäcŋaknhom ke Beljiem",
    "official_name:dsb": "Kralojstwo Belgiskej",
    "official_name:el": "Βασίλειο του Βελγίου",
    "official_name:eml": "Regno dal Bèlgi",
    "official_name:en": "Kingdom of Belgium",
    "official_name:eo": "Reĝlando Belgio",
    "official_name:es": "Reino de Bélgica",
    "official_name:et": "Belgia Kuningriik",
    "official_name:eu": "Belgikako Erresuma",
    "official_name:fa": "پادشاهی بلژیک",
    "official_name:fi": "Belgian kuningaskunta",
    "official_name:fiu-vro": "Belgiä Kuningriik",
    "official_name:fr": "Royaume de Belgique",
    "official_name:frp": "Royômo de Bèlg·ique",
    "official_name:frr": "Könangrik Belgien",
    "official_name:ga": "Ríocht na Beilge",
    "official_name:gd": "Rìoghachd na Beilge",
    "official_name:gl": "Reino de Bélxica",
    "official_name:gn": "Tetã Véyhika",
    "official_name:gv": "Reeriaght ny Belg",
    "official_name:he": "ממלכת בלגיה",
    "official_name:hi": "किंगडम ऑफ़ बेल्जियम",
    "official_name:hr": "Kraljevina Belgija",
    "official_name:hsb": "Belgiske kralestwo",
    "official_name:hu": "Belga Királyság",
    "official_name:hy": "Բելգիայի Թագավորություն",
    "official_name:ia": "Regno de Belgica",
    "official_name:id": "Kerajaan Belgia",
    "official_name:ig": "Obodoézè nke Belgium",
    "official_name:ilo": "Pagarian ti Belhika",
    "official_name:io": "Rejio di Belgia",
    "official_name:is": "Konungsríkið Belgía",
    "official_name:it": "Regno del Belgio",
    "official_name:ja": "ベルギー王国",
    "official_name:jam": "Kindom a Beljiom",
    "official_name:ka": "ბელგიის სამეფო",
    "official_name:kab": "Tigelda n Biljik",
    "official_name:kbd": "Белгэ Пэщтыхьей",
    "official_name:kg": "Nsi ya ntotila ya Belezi",
    "official_name:kk": "Бельгия Корольдігі",
    "official_name:kl": "Kunngeqarfik Belgia",
    "official_name:kn": "ಬೆಲ್ಜಿಯಂ ಸಂಸ್ಥಾನ",
    "official_name:ko": "벨기에 왕국",
    "official_name:koi": "Короля Белгия",
    "official_name:krc": "Бельгия Королевство",
    "official_name:ku": "Keyaniya Belçîkayê",
    "official_name:kv": "Бельгия Корольув",
    "official_name:kw": "Ruwvaneth Belgek",
    "official_name:ky": "Бельгия Королдугу",
    "official_name:la": "Regnum Belgicum",
    "official_name:lad": "Reyno de Beljika",
    "official_name:lb": "Kinnekräich Belsch",
    "official_name:lg": "Obwakabaka bwa Bubirigi",
    "official_name:li": "Keuninkriek Belsj",
    "official_name:lij": "Regno do Belgio",
    "official_name:lmo": "Regn del Belgi",
    "official_name:ln": "Mani ya Bɛ́ljika",
    "official_name:lo": "ລາຊະອານາຈັກແບນຊິກ",
    "official_name:lt": "Belgijos Karalystė",
    "official_name:lv": "Beļģijas Karaliste",
    "official_name:lzh": "比利時王國",
    "official_name:mdf": "Бельгие Оцязорксшись",
    "official_name:mk": "Кралство Белгија",
    "official_name:mn": "Бельгийн Вант Улс",
    "official_name:mr": "बेल्जियमचे राजतंत्र",
    "official_name:ms": "Kerajaan Belgium",
    "official_name:mt": "Renju tal-Belġju",
    "official_name:my": "ကင်းဒမ်းအော့ဖ် ဘယ်လ်ဂျီယမ်",
    "official_name:myv": "Бельгия Масторось",
    "official_name:nah": "Huēyitlahtohcāyōtl Belgica",
    "official_name:nan": "Pe̍k-ní-gī-kok",
    "official_name:nds": "Königriek vun Belgien",
    "official_name:nds-nl": "Koninkriek België",
    "official_name:new": "बेल्जियम राजतन्त्र",
    "official_name:nl": "Koninkrijk België",
    "official_name:nn": "Kongeriket Belgia",
    "official_name:no": "Kongeriket Belgia",
    "official_name:oc": "Reialme de Belgica",
    "official_name:olo": "Bel’gien kuningaskundu",
    "official_name:os": "Бельгийы Къаролад",
    "official_name:pa": "ਬੈਲਜੀਅਮ ਦੀ ਰਾਜਸ਼ਾਹੀ",
    "official_name:pam": "Ka-ariyan ning Belgika",
    "official_name:pap": "Reino Bélgika",
    "official_name:pcd": "Roéyôme d’ Bergike",
    "official_name:pfl": "Royaume de Belgique",
    "official_name:pl": "Królestwo Belgii",
    "official_name:pnt": "Βασίλειον τη Βελγί",
    "official_name:ps": "د بلجیم بادشاهي",
    "official_name:pt": "Reino da Bélgica",
    "official_name:qu": "Bilhika Qhapaqsuyu",
    "official_name:rm": "Reginavel da la Belgia",
    "official_name:rmy": "Thangaripen Beljiyako",
    "official_name:rn": "Irepuburika y’Ububirigi",
    "official_name:ro": "Regatul Belgiei",
    "official_name:roa-tara": "Regne d'u Bèlgie",
    "official_name:ru": "Королевство Бельгия",
    "official_name:rue": "Белґіцьке кралёвство",
    "official_name:rw": "Igihugu cy’Ububirigi",
    "official_name:sah": "Бельгия Хоруоллуга",
    "official_name:sc": "Rennu de Bèlgiu",
    "official_name:sco": "Kinrick o Belgium",
    "official_name:sd": "بيلجيم جي شهنشاهيت",
    "official_name:se": "Belgia gonagasriika",
    "official_name:sg": "Ködörö-gbïä tî Bêleze",
    "official_name:sh": "Kraljevina Belgija",
    "official_name:sk": "Belgické kráľovstvo",
    "official_name:sl": "Kraljevína Bélgija",
    "official_name:sm": "Malo o Peleseuma",
    "official_name:sq": "Mbretëria e Belgjikës",
    "official_name:sr": "Краљевина Белгија",
    "official_name:su": "Karajaan Bélgia",
    "official_name:sv": "Konungariket Belgien",
    "official_name:sw": "Ufalme wa Ubelgiji",
    "official_name:szl": "Krůlestwo Belgije",
    "official_name:ta": "பெல்ஜியம் இராச்சியம்",
    "official_name:te": "బెల్జియం రాజ్యం",
    "official_name:tet": "Reinu Béljika nian",
    "official_name:tg": "Шоҳигарии Бeлгия",
    "official_name:th": "ราชอาณาจักรเบลเยียม",
    "official_name:tk": "Belgiýa korollygy",
    "official_name:tl": "Kaharian ng Belhika",
    "official_name:tr": "Belçika Krallığı",
    "official_name:tt": "Бе́льгия Корольлеге́",
    "official_name:udm": "Королевство Бельгия",
    "official_name:ug": "بېلگىيە پادىشاھلىقى",
    "official_name:uk": "Королі́вство Бе́льгія",
    "official_name:ur": "مملکت بلجئیم",
    "official_name:uz": "Belgiya Qirolligi",
    "official_name:vec": "Regno del Belgio",
    "official_name:vep": "Bel'gijan Kunigahuz",
    "official_name:vi": "Vương quốc Bỉ",
    "official_name:vls": "Keunienkryk België",
    "official_name:vo": "Regän Belgäna",
    "official_name:wa": "Royåme di Beldjike",
    "official_name:war": "Ginhadi-an han Belhika",
    "official_name:wo": "Ruwaayom bu Beljik",
    "official_name:xal": "Бельҗмудин Орн Нутг",
    "official_name:xmf": "ბელგიაშ ომაფე",
    "official_name:yi": "קעניגרייך פון בעלגיע",
    "official_name:yo": "Ilẹ̀ọba Bẹ́ljíọ̀m",
    "official_name:yue": "比利時王國",
    "official_name:zea": "Konienkriek België",
    "official_name:zh": "比利時王國",
    "timezone": "Europe/Brussels",
    "type": "boundary",
    "wikidata": "Q31",
    "wikipedia": "nl:België"
  }
},
{
  "type": "area",
  "id": 3600053114,
  "tags": {
    "ISO3166-2": "BE-VAN",
    "admin_level": "6",
    "alt_name:ar": "أنتفيرب",
    "alt_name:mk": "Антверп",
    "border_type": "province",
    "boundary": "administrative",
    "name": "Antwerpen",
    "name:ar": "أنتويرب",
    "name:ca": "Província d'Anvers",
    "name:de": "Antwerpen",
    "name:en": "Antwerp",
    "name:es": "Amberes",
    "name:fr": "Anvers",
    "name:hu": "Antwerpen",
    "name:la": "Antverpia",
    "name:lt": "Antverpenas",
    "name:mk": "Антверпен",
    "name:nl": "Antwerpen",
    "name:pl": "Antwerpia",
    "name:ru": "Антверпен",
    "name:sk": "Antverpy",
    "name:tzl": "Anviarça",
    "name:vls": "Antwerpn",
    "official_name": "Provincie Antwerpen",
    "official_name:ar": "مقاطعة أنتويرب",
    "official_name:nl": "Provincie Antwerpen",
    "population": "1802719",
    "population:date": "2014-01-01",
    "ref:INS": "10000",
    "source:population": "wiki/ADSEI",
    "type": "boundary",
    "website": "http://www.provant.be/",
    "wikidata": "Q1116",
    "wikipedia": "nl:Antwerpen (provincie)"
  }
},
{
  "type": "area",
  "id": 3600053134,
  "tags": {
    "ISO3166-2": "BE-VLG",
    "admin_level": "4",
    "border_type": "state",
    "boundary": "administrative",
    "default_language": "nl",
    "name": "Vlaanderen",
    "name:ar": "فلاندر",
    "name:br": "Flandrez",
    "name:ca": "Flandes",
    "name:de": "Flandern",
    "name:el": "Φλάνδρα",
    "name:en": "Flanders",
    "name:eo": "Flandrio",
    "name:es": "Flandes",
    "name:et": "Flandria",
    "name:fi": "Flanderi",
    "name:fr": "Flandre",
    "name:fy": "Flaanderen",
    "name:hu": "Flandria",
    "name:ja": "フランデレン地域",
    "name:ka": "ფლანდრია",
    "name:ko": "플라망 지역",
    "name:lb": "Flandern",
    "name:li": "Vlaondere",
    "name:lt": "Flandrija",
    "name:nl": "Vlaanderen",
    "name:pcd": "Flande",
    "name:pt": "Flandres",
    "name:ru": "Фландрия",
    "name:sk": "Flámsko",
    "name:th": "เขตฟลามส์",
    "name:tzl": "Flemphäts",
    "name:vls": "Vloandern",
    "name:wa": "Flande",
    "name:zh": "弗拉芒大區",
    "name:zh-Hans": "弗拉芒大区",
    "name:zh-Hant": "弗拉芒大區",
    "nat_name": "Vlaams Gewest",
    "nat_name:ar": "الإقليم الفلامندي",
    "nat_name:be": "Фламандскі рэгіён",
    "nat_name:bg": "Фламандски регион",
    "nat_name:ca": "Regió flamenca",
    "nat_name:de": "Flämische Region",
    "nat_name:el": "Φλαμανδική Περιοχή",
    "nat_name:en": "Flemish Region",
    "nat_name:eo": "Flandra Regiono",
    "nat_name:fr": "Région flamande",
    "nat_name:lb": "Flämesch Regioun",
    "nat_name:li": "Vlaondere Gewes",
    "nat_name:mk": "Фламански регион",
    "nat_name:nl": "Vlaams Gewest",
    "nat_name:os": "Фламандийы регион",
    "nat_name:pcd": "Région flaminke",
    "nat_name:pl": "Region Flamandzki",
    "nat_name:ru": "Фламандский регион",
    "nat_name:sk": "Flámsky región",
    "nat_name:tr": "Flaman Bölgesi",
    "nat_name:vls": "Vlams Gewest",
    "nat_name:wa": "Redjon flaminde",
    "ref:INS": "02000",
    "source:name:br": "ofis publik ar brezhoneg",
    "type": "boundary",
    "website": "https://www.vlaanderen.be/",
    "wikidata": "Q9337",
    "wikipedia": "nl:Vlaams Gewest"
  }
},
{
  "type": "area",
  "id": 3600053136,
  "tags": {
    "boundary": "political",
    "default_language": "nl",
    "name": "Vlaamse Gemeenschap - Communauté flamande",
    "name:ar": "المجتمع الفلامندي",
    "name:ca": "Comunitat flamenca",
    "name:de": "Flämische Gemeinschaft",
    "name:en": "Flemish Community",
    "name:fr": "Communauté flamande",
    "name:hu": "Flamand közösség",
    "name:lt": "Flamandų bendruomenė",
    "name:nl": "Vlaamse Gemeenschap",
    "name:sk": "Flámske spoločenstvo",
    "political_division": "linguistic_community",
    "type": "boundary",
    "wikidata": "Q9331",
    "wikipedia": "nl:Vlaamse Gemeenschap"
  }
},
{
  "type": "area",
  "id": 3600412864,
  "tags": {
    "admin_level": "8",
    "alt_name:la": "Mechlinia",
    "boundary": "administrative",
    "name": "Mechelen",
    "name:be": "Мехелен",
    "name:be-tarask": "Мэхэлен",
    "name:bg": "Мехелен",
    "name:de": "Mechelen",
    "name:en": "Mechelen",
    "name:eo": "Meĥleno",
    "name:es": "Malinas",
    "name:fr": "Malines",
    "name:it": "Malines",
    "name:ja": "メヘレン",
    "name:la": "Maclinia",
    "name:ru": "Мехелен",
    "name:sr": "Мехелен",
    "name:th": "เมเคอเลิน",
    "name:uk": "Мехелен",
    "name:vls": "Mecheln",
    "name:zh": "梅赫伦",
    "old_name:en": "Mechlin",
    "ref:INS": "12025",
    "type": "boundary",
    "website": "https://www.mechelen.be/",
    "wikidata": "Q162022",
    "wikipedia": "nl:Mechelen (stad)"
  }
},
{
  "type": "area",
  "id": 3600414402,
  "tags": {
    "admin_level": "8",
    "boundary": "administrative",
    "name": "Sint-Katelijne-Waver",
    "name:fr": "Wavre-Sainte-Catherine",
    "name:ru": "Синт-Кателейне-Вавер",
    "ref:INS": "12035",
    "type": "boundary",
    "website": "http://www.skw.be",
    "wikidata": "Q696578",
    "wikipedia": "nl:Sint-Katelijne-Waver"
  }
},
{
  "type": "area",
  "id": 3600937244,
  "tags": {
    "ISO3166-1": "BE",
    "admin_level": "2",
    "flag": "http://upload.wikimedia.org/wikipedia/commons/6/65/Flag_of_Belgium.svg",
    "land_area": "administrative",
    "name": "België / Belgique / Belgien (land mass)",
    "name:ar": "بلجيكا (كتلة اليابسة)",
    "name:ca": "Bèlgica (terra)",
    "name:de": "Belgien (Landmasse)",
    "name:en": "Belgium (land mass)",
    "name:fr": "Belgique (terres)",
    "name:lt": "Belgija (žemė)",
    "name:nl": "België (land)",
    "type": "land_area"
  }
},
{
  "type": "area",
  "id": 3602524403,
  "tags": {
    "admin_level": "7",
    "alt_name:la": "Mechlinia",
    "boundary": "administrative",
    "name": "Mechelen",
    "name:de": "Mecheln",
    "name:fr": "Malines",
    "name:la": "Maclinia",
    "name:nl": "Mechelen",
    "name:ru": "Мехелен",
    "name:vls": "Mecheln",
    "official_name": "Arrondissement Mechelen",
    "official_name:nl": "Arrondissement Mechelen",
    "old_name:en": "Mechlin",
    "ref:INS": "12000",
    "type": "boundary",
    "wikidata": "Q90905",
    "wikipedia": "nl:Arrondissement Mechelen"
  }
},
{
  "type": "area",
  "id": 3603369532,
  "tags": {
    "boundary": "postal_code",
    "note": "2800 Mechelen - Walem",
    "postal_code": "2800",
    "type": "boundary"
  }
},
{
  "type": "area",
  "id": 3603369539,
  "tags": {
    "admin_level": "9",
    "boundary": "administrative",
    "name": "Walem",
    "old_ref:INS": "12037",
    "population": "1794",
    "population:date": "2007-01-01",
    "ref:INS": "12025E",
    "source:population": "wikipedia",
    "type": "boundary",
    "wikidata": "Q2856042",
    "wikipedia": "nl:Walem (Antwerpen)"
  }
},
{
  "type": "area",
  "id": 3603388165,
  "tags": {
    "boundary": "postal_code",
    "note": "2860 Sint-Katelijne-Waver",
    "postal_code": "2860",
    "type": "boundary"
  }
},
{
  "type": "area",
  "id": 3603388168,
  "tags": {
    "admin_level": "9",
    "boundary": "administrative",
    "name": "Sint-Katelijne-Waver",
    "name:fr": "Wavre-Sainte-Catherine",
    "ref:INS": "12035A",
    "type": "boundary",
    "wikidata": "Q696578",
    "wikipedia": "nl:Sint-Katelijne-Waver"
  }
},
{
  "type": "node",
  "id": 287004459,
  "lat": 51.0682612,
  "lon": 4.4745744
},
{
  "type": "node",
  "id": 304521563,
  "lat": 51.0699892,
  "lon": 4.4592890
},
{
  "type": "node",
  "id": 1147737377,
  "lat": 51.0701722,
  "lon": 4.4606616
},
{
  "type": "node",
  "id": 1281348587,
  "lat": 51.0713636,
  "lon": 4.4603004
},
{
  "type": "node",
  "id": 1282650160,
  "lat": 51.0696876,
  "lon": 4.4614919
},
{
  "type": "node",
  "id": 1282650193,
  "lat": 51.0700647,
  "lon": 4.4609596
},
{
  "type": "node",
  "id": 1282650205,
  "lat": 51.0695571,
  "lon": 4.4624017
},
{
  "type": "node",
  "id": 1282650213,
  "lat": 51.0700458,
  "lon": 4.4613900
},
{
  "type": "node",
  "id": 1282650240,
  "lat": 51.0701881,
  "lon": 4.4608312
},
{
  "type": "node",
  "id": 1282650244,
  "lat": 51.0695215,
  "lon": 4.4619185
},
{
  "type": "node",
  "id": 1282650256,
  "lat": 51.0700624,
  "lon": 4.4612767
},
{
  "type": "node",
  "id": 1282650260,
  "lat": 51.0690785,
  "lon": 4.4625941
},
{
  "type": "node",
  "id": 1282650268,
  "lat": 51.0696069,
  "lon": 4.4616278
},
{
  "type": "node",
  "id": 1282650280,
  "lat": 51.0701556,
  "lon": 4.4604902
},
{
  "type": "node",
  "id": 1282650287,
  "lat": 51.0700363,
  "lon": 4.4610238
},
{
  "type": "node",
  "id": 1282650289,
  "lat": 51.0695073,
  "lon": 4.4625263
},
{
  "type": "node",
  "id": 2911089108,
  "lat": 51.0700618,
  "lon": 4.4598077
},
{
  "type": "node",
  "id": 6028032169,
  "lat": 51.0714123,
  "lon": 4.4606288
},
{
  "type": "node",
  "id": 6028032170,
  "lat": 51.0708441,
  "lon": 4.4607555
},
{
  "type": "node",
  "id": 6028032171,
  "lat": 51.0707487,
  "lon": 4.4607380
},
{
  "type": "node",
  "id": 6028032172,
  "lat": 51.0706137,
  "lon": 4.4604893
},
{
  "type": "node",
  "id": 6028032173,
  "lat": 51.0704464,
  "lon": 4.4601216
},
{
  "type": "node",
  "id": 6028032174,
  "lat": 51.0703626,
  "lon": 4.4598583
},
{
  "type": "node",
  "id": 6028032175,
  "lat": 51.0702891,
  "lon": 4.4597006
},
{
  "type": "node",
  "id": 6028032176,
  "lat": 51.0702193,
  "lon": 4.4595861
},
{
  "type": "node",
  "id": 6028032177,
  "lat": 51.0701039,
  "lon": 4.4595459
},
{
  "type": "node",
  "id": 6028032178,
  "lat": 51.0700163,
  "lon": 4.4594825
},
{
  "type": "node",
  "id": 247942576,
  "lat": 51.0728626,
  "lon": 4.4652389
},
{
  "type": "node",
  "id": 248015151,
  "lat": 51.0717376,
  "lon": 4.4634380
},
{
  "type": "node",
  "id": 248015152,
  "lat": 51.0715184,
  "lon": 4.4634358
},
{
  "type": "node",
  "id": 248015169,
  "lat": 51.0705878,
  "lon": 4.4644820
},
{
  "type": "node",
  "id": 259045339,
  "lat": 51.0695833,
  "lon": 4.4667480
},
{
  "type": "node",
  "id": 259045345,
  "lat": 51.0695407,
  "lon": 4.4665465
},
{
  "type": "node",
  "id": 259045404,
  "lat": 51.0697436,
  "lon": 4.4676159
},
{
  "type": "node",
  "id": 259045405,
  "lat": 51.0699756,
  "lon": 4.4692209
},
{
  "type": "node",
  "id": 1133028722,
  "lat": 51.0698909,
  "lon": 4.4683568
},
{
  "type": "node",
  "id": 1142388602,
  "lat": 51.0696865,
  "lon": 4.4646642
},
{
  "type": "node",
  "id": 1147737239,
  "lat": 51.0691504,
  "lon": 4.4648032
},
{
  "type": "node",
  "id": 1281348579,
  "lat": 51.0715863,
  "lon": 4.4633653
},
{
  "type": "node",
  "id": 1281365905,
  "lat": 51.0721410,
  "lon": 4.4633985
},
{
  "type": "node",
  "id": 1281365911,
  "lat": 51.0705701,
  "lon": 4.4655632
},
{
  "type": "node",
  "id": 1281365913,
  "lat": 51.0726941,
  "lon": 4.4651884
},
{
  "type": "node",
  "id": 1281365915,
  "lat": 51.0704735,
  "lon": 4.4667614
},
{
  "type": "node",
  "id": 1281365916,
  "lat": 51.0706462,
  "lon": 4.4634907
},
{
  "type": "node",
  "id": 1281365917,
  "lat": 51.0704155,
  "lon": 4.4668437
},
{
  "type": "node",
  "id": 1281365919,
  "lat": 51.0709819,
  "lon": 4.4670312
},
{
  "type": "node",
  "id": 1281365920,
  "lat": 51.0703792,
  "lon": 4.4668953
},
{
  "type": "node",
  "id": 1281365921,
  "lat": 51.0721897,
  "lon": 4.4635009
},
{
  "type": "node",
  "id": 1281365924,
  "lat": 51.0721804,
  "lon": 4.4636571
},
{
  "type": "node",
  "id": 1281365925,
  "lat": 51.0714780,
  "lon": 4.4667997
},
{
  "type": "node",
  "id": 1281365926,
  "lat": 51.0705092,
  "lon": 4.4666559
},
{
  "type": "node",
  "id": 1281365928,
  "lat": 51.0705360,
  "lon": 4.4661282
},
{
  "type": "node",
  "id": 1281365929,
  "lat": 51.0726035,
  "lon": 4.4656778
},
{
  "type": "node",
  "id": 1281365930,
  "lat": 51.0721605,
  "lon": 4.4649826
},
{
  "type": "node",
  "id": 1281365932,
  "lat": 51.0721266,
  "lon": 4.4648811
},
{
  "type": "node",
  "id": 1281365936,
  "lat": 51.0706189,
  "lon": 4.4640358
},
{
  "type": "node",
  "id": 1282650175,
  "lat": 51.0711015,
  "lon": 4.4634426
},
{
  "type": "node",
  "id": 1282650191,
  "lat": 51.0723462,
  "lon": 4.4688264
},
{
  "type": "node",
  "id": 1282650211,
  "lat": 51.0723700,
  "lon": 4.4669995
},
{
  "type": "node",
  "id": 1282650227,
  "lat": 51.0725130,
  "lon": 4.4661514
},
{
  "type": "node",
  "id": 1282650246,
  "lat": 51.0723174,
  "lon": 4.4679103
},
{
  "type": "node",
  "id": 1282650286,
  "lat": 51.0723233,
  "lon": 4.4684116
},
{
  "type": "node",
  "id": 1711849230,
  "lat": 51.0691691,
  "lon": 4.4648013
},
{
  "type": "node",
  "id": 1720383255,
  "lat": 51.0694958,
  "lon": 4.4663828
},
{
  "type": "node",
  "id": 1720383277,
  "lat": 51.0697070,
  "lon": 4.4673735
},
{
  "type": "node",
  "id": 1720383300,
  "lat": 51.0698801,
  "lon": 4.4674248
},
{
  "type": "node",
  "id": 1720383302,
  "lat": 51.0698939,
  "lon": 4.4669799
},
{
  "type": "node",
  "id": 1720383304,
  "lat": 51.0698963,
  "lon": 4.4678242
},
{
  "type": "node",
  "id": 1720383308,
  "lat": 51.0699246,
  "lon": 4.4667488
},
{
  "type": "node",
  "id": 1720383309,
  "lat": 51.0699246,
  "lon": 4.4681592
},
{
  "type": "node",
  "id": 1720383323,
  "lat": 51.0704028,
  "lon": 4.4683061
},
{
  "type": "node",
  "id": 1720383329,
  "lat": 51.0704629,
  "lon": 4.4686569
},
{
  "type": "node",
  "id": 1720383354,
  "lat": 51.0706132,
  "lon": 4.4687298
},
{
  "type": "node",
  "id": 1720383413,
  "lat": 51.0708338,
  "lon": 4.4687536
},
{
  "type": "node",
  "id": 1720383422,
  "lat": 51.0710824,
  "lon": 4.4686722
},
{
  "type": "node",
  "id": 1720383446,
  "lat": 51.0715185,
  "lon": 4.4634359
},
{
  "type": "node",
  "id": 1720383453,
  "lat": 51.0716773,
  "lon": 4.4634390
},
{
  "type": "node",
  "id": 1720383462,
  "lat": 51.0718283,
  "lon": 4.4689911
},
{
  "type": "node",
  "id": 1720383480,
  "lat": 51.0720800,
  "lon": 4.4650289
},
{
  "type": "node",
  "id": 1720383481,
  "lat": 51.0720986,
  "lon": 4.4634984
},
{
  "type": "node",
  "id": 1720383487,
  "lat": 51.0721472,
  "lon": 4.4636485
},
{
  "type": "node",
  "id": 1720383490,
  "lat": 51.0722730,
  "lon": 4.4684907
},
{
  "type": "node",
  "id": 1720383491,
  "lat": 51.0722688,
  "lon": 4.4679013
},
{
  "type": "node",
  "id": 1720383492,
  "lat": 51.0723126,
  "lon": 4.4691700
},
{
  "type": "node",
  "id": 1720383493,
  "lat": 51.0723338,
  "lon": 4.4669416
},
{
  "type": "node",
  "id": 1720383504,
  "lat": 51.0724682,
  "lon": 4.4662894
},
{
  "type": "node",
  "id": 1720383510,
  "lat": 51.0726747,
  "lon": 4.4652432
},
{
  "type": "node",
  "id": 1739180779,
  "lat": 51.0705977,
  "lon": 4.4644828
},
{
  "type": "node",
  "id": 1739180781,
  "lat": 51.0705992,
  "lon": 4.4644071
},
{
  "type": "node",
  "id": 1798045446,
  "lat": 51.0712103,
  "lon": 4.4669435
},
{
  "type": "node",
  "id": 1798045448,
  "lat": 51.0712015,
  "lon": 4.4666958
},
{
  "type": "node",
  "id": 1798045449,
  "lat": 51.0712108,
  "lon": 4.4664784
},
{
  "type": "node",
  "id": 1798045450,
  "lat": 51.0712438,
  "lon": 4.4687412
},
{
  "type": "node",
  "id": 1798045451,
  "lat": 51.0712487,
  "lon": 4.4685226
},
{
  "type": "node",
  "id": 1798045452,
  "lat": 51.0712665,
  "lon": 4.4683919
},
{
  "type": "node",
  "id": 1798045453,
  "lat": 51.0712785,
  "lon": 4.4664388
},
{
  "type": "node",
  "id": 1798045454,
  "lat": 51.0713708,
  "lon": 4.4683248
},
{
  "type": "node",
  "id": 1798045455,
  "lat": 51.0713790,
  "lon": 4.4663784
},
{
  "type": "node",
  "id": 1798045456,
  "lat": 51.0714729,
  "lon": 4.4662554
},
{
  "type": "node",
  "id": 1798045457,
  "lat": 51.0714862,
  "lon": 4.4683389
},
{
  "type": "node",
  "id": 1798045458,
  "lat": 51.0715949,
  "lon": 4.4684060
},
{
  "type": "node",
  "id": 1798045459,
  "lat": 51.0716104,
  "lon": 4.4662801
},
{
  "type": "node",
  "id": 1798045460,
  "lat": 51.0716270,
  "lon": 4.4666110
},
{
  "type": "node",
  "id": 1798045461,
  "lat": 51.0716437,
  "lon": 4.4664002
},
{
  "type": "node",
  "id": 1798045462,
  "lat": 51.0717629,
  "lon": 4.4685381
},
{
  "type": "node",
  "id": 1798045463,
  "lat": 51.0717587,
  "lon": 4.4668020
},
{
  "type": "node",
  "id": 1798045464,
  "lat": 51.0718545,
  "lon": 4.4685639
},
{
  "type": "node",
  "id": 1798045465,
  "lat": 51.0719068,
  "lon": 4.4670779
},
{
  "type": "node",
  "id": 1798045466,
  "lat": 51.0719076,
  "lon": 4.4685204
},
{
  "type": "node",
  "id": 1798045467,
  "lat": 51.0718945,
  "lon": 4.4675126
},
{
  "type": "node",
  "id": 1798045468,
  "lat": 51.0719277,
  "lon": 4.4683596
},
{
  "type": "node",
  "id": 1798045469,
  "lat": 51.0719363,
  "lon": 4.4681157
},
{
  "type": "node",
  "id": 2272256589,
  "lat": 51.0711413,
  "lon": 4.4669934
},
{
  "type": "node",
  "id": 2272256598,
  "lat": 51.0714239,
  "lon": 4.4668293
},
{
  "type": "node",
  "id": 2272256599,
  "lat": 51.0716021,
  "lon": 4.4666930
},
{
  "type": "node",
  "id": 2272256600,
  "lat": 51.0716059,
  "lon": 4.4671077
},
{
  "type": "node",
  "id": 2272256601,
  "lat": 51.0716545,
  "lon": 4.4671840
},
{
  "type": "node",
  "id": 2272256604,
  "lat": 51.0717338,
  "lon": 4.4672670
},
{
  "type": "node",
  "id": 2272256605,
  "lat": 51.0718266,
  "lon": 4.4673115
},
{
  "type": "node",
  "id": 2272256606,
  "lat": 51.0718827,
  "lon": 4.4672709
},
{
  "type": "node",
  "id": 2932586044,
  "lat": 51.0705641,
  "lon": 4.4687060
},
{
  "type": "node",
  "id": 2932586047,
  "lat": 51.0706042,
  "lon": 4.4688383
},
{
  "type": "node",
  "id": 2932586049,
  "lat": 51.0706277,
  "lon": 4.4689176
},
{
  "type": "node",
  "id": 2932586052,
  "lat": 51.0707053,
  "lon": 4.4690829
},
{
  "type": "node",
  "id": 2932586053,
  "lat": 51.0708119,
  "lon": 4.4693408
},
{
  "type": "node",
  "id": 2932586060,
  "lat": 51.0709269,
  "lon": 4.4695370
},
{
  "type": "node",
  "id": 2932586067,
  "lat": 51.0710571,
  "lon": 4.4694378
},
{
  "type": "node",
  "id": 2932586071,
  "lat": 51.0710862,
  "lon": 4.4692505
},
{
  "type": "node",
  "id": 2932586076,
  "lat": 51.0711402,
  "lon": 4.4690675
},
{
  "type": "node",
  "id": 2932586080,
  "lat": 51.0711984,
  "lon": 4.4689529
},
{
  "type": "node",
  "id": 2932586082,
  "lat": 51.0712482,
  "lon": 4.4688824
},
{
  "type": "node",
  "id": 2932586087,
  "lat": 51.0713667,
  "lon": 4.4687937
},
{
  "type": "node",
  "id": 3808763834,
  "lat": 51.0691857,
  "lon": 4.4648487
},
{
  "type": "node",
  "id": 3808763853,
  "lat": 51.0695582,
  "lon": 4.4669522
},
{
  "type": "node",
  "id": 3808764664,
  "lat": 51.0696911,
  "lon": 4.4673251
},
{
  "type": "node",
  "id": 3808764697,
  "lat": 51.0699253,
  "lon": 4.4645985
},
{
  "type": "node",
  "id": 3808764699,
  "lat": 51.0699670,
  "lon": 4.4645406
},
{
  "type": "node",
  "id": 4643971636,
  "lat": 51.0708203,
  "lon": 4.4669995
},
{
  "type": "node",
  "id": 4643971637,
  "lat": 51.0707993,
  "lon": 4.4672233
},
{
  "type": "node",
  "id": 4643971638,
  "lat": 51.0707562,
  "lon": 4.4674020
},
{
  "type": "node",
  "id": 4643971639,
  "lat": 51.0706979,
  "lon": 4.4676902
},
{
  "type": "node",
  "id": 4643971640,
  "lat": 51.0706847,
  "lon": 4.4678724
},
{
  "type": "node",
  "id": 4643971641,
  "lat": 51.0706928,
  "lon": 4.4680784
},
{
  "type": "node",
  "id": 4643971642,
  "lat": 51.0707243,
  "lon": 4.4681897
},
{
  "type": "node",
  "id": 4643971643,
  "lat": 51.0709541,
  "lon": 4.4682853
},
{
  "type": "node",
  "id": 4643971644,
  "lat": 51.0710488,
  "lon": 4.4684034
},
{
  "type": "node",
  "id": 4643971645,
  "lat": 51.0711094,
  "lon": 4.4684356
},
{
  "type": "node",
  "id": 4643971646,
  "lat": 51.0712600,
  "lon": 4.4684394
},
{
  "type": "node",
  "id": 4643971651,
  "lat": 51.0706703,
  "lon": 4.4669640
},
{
  "type": "node",
  "id": 4732751545,
  "lat": 51.0715444,
  "lon": 4.4670256
},
{
  "type": "node",
  "id": 4732751546,
  "lat": 51.0715162,
  "lon": 4.4671232
},
{
  "type": "node",
  "id": 4732751547,
  "lat": 51.0714694,
  "lon": 4.4672736
},
{
  "type": "node",
  "id": 4732751548,
  "lat": 51.0714656,
  "lon": 4.4673652
},
{
  "type": "node",
  "id": 4732751549,
  "lat": 51.0714977,
  "lon": 4.4675796
},
{
  "type": "node",
  "id": 4732751550,
  "lat": 51.0715284,
  "lon": 4.4677232
},
{
  "type": "node",
  "id": 4732751551,
  "lat": 51.0718154,
  "lon": 4.4685706
},
{
  "type": "node",
  "id": 4732751552,
  "lat": 51.0717120,
  "lon": 4.4684950
},
{
  "type": "node",
  "id": 4732751553,
  "lat": 51.0716536,
  "lon": 4.4684634
},
{
  "type": "node",
  "id": 4732751554,
  "lat": 51.0719186,
  "lon": 4.4684556
},
{
  "type": "node",
  "id": 4732751555,
  "lat": 51.0719371,
  "lon": 4.4679539
},
{
  "type": "node",
  "id": 4732751556,
  "lat": 51.0719216,
  "lon": 4.4678026
},
{
  "type": "node",
  "id": 4732751557,
  "lat": 51.0714534,
  "lon": 4.4677558
},
{
  "type": "node",
  "id": 4732751558,
  "lat": 51.0714887,
  "lon": 4.4679615
},
{
  "type": "node",
  "id": 4732751559,
  "lat": 51.0717126,
  "lon": 4.4678642
},
{
  "type": "node",
  "id": 4732751560,
  "lat": 51.0716773,
  "lon": 4.4676585
},
{
  "type": "node",
  "id": 4732751562,
  "lat": 51.0711917,
  "lon": 4.4669570
},
{
  "type": "node",
  "id": 4732751563,
  "lat": 51.0712011,
  "lon": 4.4670631
},
{
  "type": "node",
  "id": 4732751564,
  "lat": 51.0711990,
  "lon": 4.4671392
},
{
  "type": "node",
  "id": 4732751565,
  "lat": 51.0712006,
  "lon": 4.4672221
},
{
  "type": "node",
  "id": 4732751566,
  "lat": 51.0711990,
  "lon": 4.4673311
},
{
  "type": "node",
  "id": 4732751567,
  "lat": 51.0711984,
  "lon": 4.4673648
},
{
  "type": "node",
  "id": 4732751568,
  "lat": 51.0711935,
  "lon": 4.4674339
},
{
  "type": "node",
  "id": 4732751569,
  "lat": 51.0711892,
  "lon": 4.4674901
},
{
  "type": "node",
  "id": 4732751570,
  "lat": 51.0711783,
  "lon": 4.4675627
},
{
  "type": "node",
  "id": 4732751571,
  "lat": 51.0711734,
  "lon": 4.4676362
},
{
  "type": "node",
  "id": 4732751572,
  "lat": 51.0711837,
  "lon": 4.4676863
},
{
  "type": "node",
  "id": 4732751573,
  "lat": 51.0712076,
  "lon": 4.4677460
},
{
  "type": "node",
  "id": 4732751574,
  "lat": 51.0712288,
  "lon": 4.4677987
},
{
  "type": "node",
  "id": 4732751575,
  "lat": 51.0712565,
  "lon": 4.4678532
},
{
  "type": "node",
  "id": 4732751576,
  "lat": 51.0712696,
  "lon": 4.4678704
},
{
  "type": "node",
  "id": 4732751577,
  "lat": 51.0712864,
  "lon": 4.4678765
},
{
  "type": "node",
  "id": 4732751578,
  "lat": 51.0713146,
  "lon": 4.4678817
},
{
  "type": "node",
  "id": 4732751579,
  "lat": 51.0713548,
  "lon": 4.4678912
},
{
  "type": "node",
  "id": 4732751580,
  "lat": 51.0713777,
  "lon": 4.4678938
},
{
  "type": "node",
  "id": 4732751581,
  "lat": 51.0714021,
  "lon": 4.4678869
},
{
  "type": "node",
  "id": 4732751582,
  "lat": 51.0714688,
  "lon": 4.4678458
},
{
  "type": "node",
  "id": 4732751583,
  "lat": 51.0714873,
  "lon": 4.4679536
},
{
  "type": "node",
  "id": 4732751584,
  "lat": 51.0714700,
  "lon": 4.4680079
},
{
  "type": "node",
  "id": 4732751585,
  "lat": 51.0714629,
  "lon": 4.4680632
},
{
  "type": "node",
  "id": 4732751586,
  "lat": 51.0714493,
  "lon": 4.4681687
},
{
  "type": "node",
  "id": 4732751587,
  "lat": 51.0714276,
  "lon": 4.4682516
},
{
  "type": "node",
  "id": 4732751588,
  "lat": 51.0714037,
  "lon": 4.4683288
},
{
  "type": "node",
  "id": 4732751589,
  "lat": 51.0705212,
  "lon": 4.4669288
},
{
  "type": "node",
  "id": 4732751590,
  "lat": 51.0705124,
  "lon": 4.4668906
},
{
  "type": "node",
  "id": 4732751591,
  "lat": 51.0705070,
  "lon": 4.4668077
},
{
  "type": "node",
  "id": 4732751617,
  "lat": 51.0718591,
  "lon": 4.4670156
},
{
  "type": "node",
  "id": 4732751618,
  "lat": 51.0714884,
  "lon": 4.4669508
},
{
  "type": "node",
  "id": 4732751619,
  "lat": 51.0708184,
  "lon": 4.4670632
},
{
  "type": "node",
  "id": 4732751620,
  "lat": 51.0708116,
  "lon": 4.4671557
},
{
  "type": "node",
  "id": 4732752021,
  "lat": 51.0706832,
  "lon": 4.4679786
},
{
  "type": "node",
  "id": 4732752022,
  "lat": 51.0707983,
  "lon": 4.4682695
},
{
  "type": "node",
  "id": 4732752023,
  "lat": 51.0708738,
  "lon": 4.4682530
},
{
  "type": "node",
  "id": 4732752024,
  "lat": 51.0709124,
  "lon": 4.4682600
},
{
  "type": "node",
  "id": 4732752055,
  "lat": 51.0721393,
  "lon": 4.4635638
},
{
  "type": "node",
  "id": 4732752058,
  "lat": 51.0706299,
  "lon": 4.4637513
},
{
  "type": "node",
  "id": 4732752070,
  "lat": 51.0723327,
  "lon": 4.4675681
},
{
  "type": "node",
  "id": 4732752071,
  "lat": 51.0723186,
  "lon": 4.4681680
},
{
  "type": "node",
  "id": 4732752073,
  "lat": 51.0723669,
  "lon": 4.4691331
},
{
  "type": "node",
  "id": 4732752074,
  "lat": 51.0723984,
  "lon": 4.4694244
},
{
  "type": "node",
  "id": 4732752084,
  "lat": 51.0718303,
  "lon": 4.4694616
},
{
  "type": "node",
  "id": 4732752085,
  "lat": 51.0718254,
  "lon": 4.4692930
},
{
  "type": "node",
  "id": 4732788229,
  "lat": 51.0695792,
  "lon": 4.4669876
},
{
  "type": "node",
  "id": 4732788243,
  "lat": 51.0696571,
  "lon": 4.4671831
},
{
  "type": "node",
  "id": 4732788244,
  "lat": 51.0698890,
  "lon": 4.4671372
},
{
  "type": "node",
  "id": 4732788270,
  "lat": 51.0706208,
  "lon": 4.4634503
},
{
  "type": "node",
  "id": 4732828360,
  "lat": 51.0705829,
  "lon": 4.4646663
},
{
  "type": "node",
  "id": 4732828361,
  "lat": 51.0705761,
  "lon": 4.4648664
},
{
  "type": "node",
  "id": 4732828362,
  "lat": 51.0705646,
  "lon": 4.4652456
},
{
  "type": "node",
  "id": 4732828363,
  "lat": 51.0705692,
  "lon": 4.4654034
},
{
  "type": "node",
  "id": 4732828364,
  "lat": 51.0705462,
  "lon": 4.4657369
},
{
  "type": "node",
  "id": 4732828365,
  "lat": 51.0705435,
  "lon": 4.4659283
},
{
  "type": "node",
  "id": 4732828366,
  "lat": 51.0705178,
  "lon": 4.4665814
},
{
  "type": "node",
  "id": 4732828367,
  "lat": 51.0714322,
  "lon": 4.4662424
},
{
  "type": "node",
  "id": 4732834596,
  "lat": 51.0723937,
  "lon": 4.4666508
},
{
  "type": "node",
  "id": 4732834597,
  "lat": 51.0726187,
  "lon": 4.4655268
},
{
  "type": "node",
  "id": 4732856630,
  "lat": 51.0694459,
  "lon": 4.4665377
},
{
  "type": "node",
  "id": 4732856631,
  "lat": 51.0694765,
  "lon": 4.4665015
},
{
  "type": "node",
  "id": 4732856632,
  "lat": 51.0694963,
  "lon": 4.4664529
},
{
  "type": "node",
  "id": 4732856633,
  "lat": 51.0694393,
  "lon": 4.4666735
},
{
  "type": "node",
  "id": 4732856634,
  "lat": 51.0694525,
  "lon": 4.4667042
},
{
  "type": "node",
  "id": 4732856635,
  "lat": 51.0694672,
  "lon": 4.4667599
},
{
  "type": "node",
  "id": 4732856636,
  "lat": 51.0695051,
  "lon": 4.4668167
},
{
  "type": "node",
  "id": 4732856637,
  "lat": 51.0695535,
  "lon": 4.4668435
},
{
  "type": "node",
  "id": 4732878190,
  "lat": 51.0711327,
  "lon": 4.4664564
},
{
  "type": "node",
  "id": 4732878191,
  "lat": 51.0710662,
  "lon": 4.4664408
},
{
  "type": "node",
  "id": 4732878192,
  "lat": 51.0710144,
  "lon": 4.4664245
},
{
  "type": "node",
  "id": 4732878193,
  "lat": 51.0709821,
  "lon": 4.4664058
},
{
  "type": "node",
  "id": 4732878194,
  "lat": 51.0709131,
  "lon": 4.4664035
},
{
  "type": "node",
  "id": 4732878195,
  "lat": 51.0708584,
  "lon": 4.4664128
},
{
  "type": "node",
  "id": 4732878196,
  "lat": 51.0708173,
  "lon": 4.4664369
},
{
  "type": "node",
  "id": 4732878197,
  "lat": 51.0707909,
  "lon": 4.4664696
},
{
  "type": "node",
  "id": 4732878198,
  "lat": 51.0706686,
  "lon": 4.4662672
},
{
  "type": "node",
  "id": 4732878199,
  "lat": 51.0707144,
  "lon": 4.4662712
},
{
  "type": "node",
  "id": 4732878200,
  "lat": 51.0707158,
  "lon": 4.4663042
},
{
  "type": "node",
  "id": 4732878201,
  "lat": 51.0707112,
  "lon": 4.4663564
},
{
  "type": "node",
  "id": 4732878202,
  "lat": 51.0707026,
  "lon": 4.4663809
},
{
  "type": "node",
  "id": 4732878203,
  "lat": 51.0706970,
  "lon": 4.4664147
},
{
  "type": "node",
  "id": 4732878204,
  "lat": 51.0706887,
  "lon": 4.4664214
},
{
  "type": "node",
  "id": 4732878205,
  "lat": 51.0706887,
  "lon": 4.4664801
},
{
  "type": "node",
  "id": 4732878206,
  "lat": 51.0706884,
  "lon": 4.4665505
},
{
  "type": "node",
  "id": 4732878207,
  "lat": 51.0707129,
  "lon": 4.4666326
},
{
  "type": "node",
  "id": 4732878208,
  "lat": 51.0707073,
  "lon": 4.4667385
},
{
  "type": "node",
  "id": 4732878209,
  "lat": 51.0707021,
  "lon": 4.4668463
},
{
  "type": "node",
  "id": 4732878210,
  "lat": 51.0706972,
  "lon": 4.4669704
},
{
  "type": "node",
  "id": 4732878211,
  "lat": 51.0707044,
  "lon": 4.4669721
},
{
  "type": "node",
  "id": 4732884647,
  "lat": 51.0714699,
  "lon": 4.4691052
},
{
  "type": "node",
  "id": 4732886985,
  "lat": 51.0707339,
  "lon": 4.4666957
},
{
  "type": "node",
  "id": 4732886986,
  "lat": 51.0707095,
  "lon": 4.4666960
},
{
  "type": "node",
  "id": 4732886987,
  "lat": 51.0707270,
  "lon": 4.4666957
},
{
  "type": "node",
  "id": 4732886990,
  "lat": 51.0706974,
  "lon": 4.4669657
},
{
  "type": "node",
  "id": 4739439995,
  "lat": 51.0719889,
  "lon": 4.4692348
},
{
  "type": "node",
  "id": 4739439996,
  "lat": 51.0719501,
  "lon": 4.4692214
},
{
  "type": "node",
  "id": 4739439997,
  "lat": 51.0719299,
  "lon": 4.4693153
},
{
  "type": "node",
  "id": 4739439998,
  "lat": 51.0719400,
  "lon": 4.4694440
},
{
  "type": "node",
  "id": 4739440002,
  "lat": 51.0720344,
  "lon": 4.4694467
},
{
  "type": "node",
  "id": 4739440003,
  "lat": 51.0720276,
  "lon": 4.4693421
},
{
  "type": "node",
  "id": 4739440004,
  "lat": 51.0720108,
  "lon": 4.4692616
},
{
  "type": "node",
  "id": 5112795539,
  "lat": 51.0695950,
  "lon": 4.4670553
},
{
  "type": "node",
  "id": 267534692,
  "lat": 51.0797214,
  "lon": 4.4688371
},
{
  "type": "node",
  "id": 267534693,
  "lat": 51.0815852,
  "lon": 4.4686764
},
{
  "type": "node",
  "id": 1376638465,
  "lat": 51.0805415,
  "lon": 4.4686533
},
{
  "type": "node",
  "id": 1376638470,
  "lat": 51.0805608,
  "lon": 4.4690181
},
{
  "type": "node",
  "id": 1376638472,
  "lat": 51.0806818,
  "lon": 4.4690380
},
{
  "type": "node",
  "id": 1376638475,
  "lat": 51.0808423,
  "lon": 4.4690118
},
{
  "type": "node",
  "id": 1376638478,
  "lat": 51.0811901,
  "lon": 4.4689461
},
{
  "type": "node",
  "id": 1376638492,
  "lat": 51.0812719,
  "lon": 4.4688793
},
{
  "type": "node",
  "id": 1376638495,
  "lat": 51.0813252,
  "lon": 4.4687122
},
{
  "type": "node",
  "id": 1388999492,
  "lat": 51.0796638,
  "lon": 4.4688346
},
{
  "type": "node",
  "id": 2964257818,
  "lat": 51.0779378,
  "lon": 4.4641010
},
{
  "type": "node",
  "id": 2964257819,
  "lat": 51.0778521,
  "lon": 4.4641310
},
{
  "type": "node",
  "id": 2964257820,
  "lat": 51.0778183,
  "lon": 4.4643070
},
{
  "type": "node",
  "id": 4449253393,
  "lat": 51.0775758,
  "lon": 4.4643675
},
{
  "type": "node",
  "id": 4449253395,
  "lat": 51.0777216,
  "lon": 4.4643216
},
{
  "type": "node",
  "id": 4449266890,
  "lat": 51.0777614,
  "lon": 4.4643260
},
{
  "type": "node",
  "id": 8087991792,
  "lat": 51.0775741,
  "lon": 4.4644152
},
{
  "type": "node",
  "id": 8088005964,
  "lat": 51.0775817,
  "lon": 4.4644124
},
{
  "type": "node",
  "id": 247942585,
  "lat": 51.0728178,
  "lon": 4.4717358
},
{
  "type": "node",
  "id": 259045406,
  "lat": 51.0700511,
  "lon": 4.4695728
},
{
  "type": "node",
  "id": 259045407,
  "lat": 51.0701859,
  "lon": 4.4697788
},
{
  "type": "node",
  "id": 259045408,
  "lat": 51.0704016,
  "lon": 4.4700192
},
{
  "type": "node",
  "id": 259045913,
  "lat": 51.0707468,
  "lon": 4.4703968
},
{
  "type": "node",
  "id": 259045914,
  "lat": 51.0708762,
  "lon": 4.4706028
},
{
  "type": "node",
  "id": 259045915,
  "lat": 51.0712349,
  "lon": 4.4715266
},
{
  "type": "node",
  "id": 259045916,
  "lat": 51.0714057,
  "lon": 4.4717392
},
{
  "type": "node",
  "id": 259045932,
  "lat": 51.0716163,
  "lon": 4.4718930
},
{
  "type": "node",
  "id": 259045933,
  "lat": 51.0718536,
  "lon": 4.4720118
},
{
  "type": "node",
  "id": 259045934,
  "lat": 51.0720859,
  "lon": 4.4720713
},
{
  "type": "node",
  "id": 259045935,
  "lat": 51.0723077,
  "lon": 4.4720348
},
{
  "type": "node",
  "id": 1281348605,
  "lat": 51.0700027,
  "lon": 4.4725763
},
{
  "type": "node",
  "id": 1281365931,
  "lat": 51.0702245,
  "lon": 4.4733227
},
{
  "type": "node",
  "id": 1282650167,
  "lat": 51.0721985,
  "lon": 4.4720634
},
{
  "type": "node",
  "id": 1282650172,
  "lat": 51.0726302,
  "lon": 4.4714051
},
{
  "type": "node",
  "id": 1282650237,
  "lat": 51.0723966,
  "lon": 4.4695638
},
{
  "type": "node",
  "id": 1282650262,
  "lat": 51.0725802,
  "lon": 4.4718545
},
{
  "type": "node",
  "id": 1282650271,
  "lat": 51.0724449,
  "lon": 4.4719384
},
{
  "type": "node",
  "id": 1282650278,
  "lat": 51.0724927,
  "lon": 4.4704607
},
{
  "type": "node",
  "id": 1283265362,
  "lat": 51.0698558,
  "lon": 4.4735953
},
{
  "type": "node",
  "id": 1283265363,
  "lat": 51.0695877,
  "lon": 4.4738234
},
{
  "type": "node",
  "id": 1283265365,
  "lat": 51.0699336,
  "lon": 4.4734491
},
{
  "type": "node",
  "id": 1283265366,
  "lat": 51.0697616,
  "lon": 4.4737684
},
{
  "type": "node",
  "id": 1283265367,
  "lat": 51.0694565,
  "lon": 4.4738116
},
{
  "type": "node",
  "id": 1283265368,
  "lat": 51.0698026,
  "lon": 4.4736990
},
{
  "type": "node",
  "id": 1283265375,
  "lat": 51.0698992,
  "lon": 4.4734856
},
{
  "type": "node",
  "id": 1720383317,
  "lat": 51.0701531,
  "lon": 4.4730824
},
{
  "type": "node",
  "id": 1720383326,
  "lat": 51.0705283,
  "lon": 4.4726631
},
{
  "type": "node",
  "id": 1720383334,
  "lat": 51.0705989,
  "lon": 4.4724373
},
{
  "type": "node",
  "id": 1720383335,
  "lat": 51.0704686,
  "lon": 4.4728302
},
{
  "type": "node",
  "id": 1720383341,
  "lat": 51.0707272,
  "lon": 4.4724294
},
{
  "type": "node",
  "id": 1720383356,
  "lat": 51.0706082,
  "lon": 4.4729347
},
{
  "type": "node",
  "id": 1720383366,
  "lat": 51.0711624,
  "lon": 4.4716897
},
{
  "type": "node",
  "id": 1720383384,
  "lat": 51.0707498,
  "lon": 4.4729237
},
{
  "type": "node",
  "id": 1720383411,
  "lat": 51.0709122,
  "lon": 4.4728050
},
{
  "type": "node",
  "id": 1720383426,
  "lat": 51.0712297,
  "lon": 4.4716280
},
{
  "type": "node",
  "id": 1720383430,
  "lat": 51.0712202,
  "lon": 4.4725859
},
{
  "type": "node",
  "id": 1720383439,
  "lat": 51.0713957,
  "lon": 4.4723759
},
{
  "type": "node",
  "id": 1720383463,
  "lat": 51.0718382,
  "lon": 4.4696649
},
{
  "type": "node",
  "id": 1720383484,
  "lat": 51.0720889,
  "lon": 4.4700086
},
{
  "type": "node",
  "id": 1720383489,
  "lat": 51.0722184,
  "lon": 4.4700868
},
{
  "type": "node",
  "id": 1720383496,
  "lat": 51.0723707,
  "lon": 4.4700777
},
{
  "type": "node",
  "id": 1720383501,
  "lat": 51.0724358,
  "lon": 4.4699845
},
{
  "type": "node",
  "id": 1720383508,
  "lat": 51.0726622,
  "lon": 4.4716589
},
{
  "type": "node",
  "id": 2911088640,
  "lat": 51.0731756,
  "lon": 4.4740528
},
{
  "type": "node",
  "id": 2932586064,
  "lat": 51.0709823,
  "lon": 4.4695569
},
{
  "type": "node",
  "id": 2932586202,
  "lat": 51.0724607,
  "lon": 4.4701567
},
{
  "type": "node",
  "id": 4732752075,
  "lat": 51.0724049,
  "lon": 4.4697027
},
{
  "type": "node",
  "id": 4732752076,
  "lat": 51.0724180,
  "lon": 4.4700468
},
{
  "type": "node",
  "id": 4732752077,
  "lat": 51.0724229,
  "lon": 4.4698385
},
{
  "type": "node",
  "id": 4732752081,
  "lat": 51.0721388,
  "lon": 4.4700589
},
{
  "type": "node",
  "id": 4732752082,
  "lat": 51.0718830,
  "lon": 4.4697598
},
{
  "type": "node",
  "id": 4732752083,
  "lat": 51.0719482,
  "lon": 4.4698445
},
{
  "type": "node",
  "id": 4732884644,
  "lat": 51.0724314,
  "lon": 4.4702041
},
{
  "type": "node",
  "id": 4732884645,
  "lat": 51.0719903,
  "lon": 4.4700661
},
{
  "type": "node",
  "id": 4732884646,
  "lat": 51.0717680,
  "lon": 4.4696262
},
{
  "type": "node",
  "id": 4739439999,
  "lat": 51.0719720,
  "lon": 4.4696318
},
{
  "type": "node",
  "id": 4739440000,
  "lat": 51.0720142,
  "lon": 4.4696586
},
{
  "type": "node",
  "id": 4739440001,
  "lat": 51.0720394,
  "lon": 4.4695701
},
{
  "type": "node",
  "id": 4884131144,
  "lat": 51.0717696,
  "lon": 4.4753784
},
{
  "type": "node",
  "id": 4884131145,
  "lat": 51.0720714,
  "lon": 4.4746634
},
{
  "type": "node",
  "id": 4884131146,
  "lat": 51.0721751,
  "lon": 4.4751167
},
{
  "type": "node",
  "id": 4884131151,
  "lat": 51.0715594,
  "lon": 4.4749958
},
{
  "type": "node",
  "id": 6478856106,
  "lat": 51.0719149,
  "lon": 4.4754069
},
{
  "type": "node",
  "id": 6478856107,
  "lat": 51.0720034,
  "lon": 4.4753956
},
{
  "type": "node",
  "id": 6478856108,
  "lat": 51.0721155,
  "lon": 4.4752702
},
{
  "type": "node",
  "id": 6480122917,
  "lat": 51.0712012,
  "lon": 4.4719209
},
{
  "type": "node",
  "id": 6480122918,
  "lat": 51.0711855,
  "lon": 4.4722060
},
{
  "type": "node",
  "id": 6480122919,
  "lat": 51.0710726,
  "lon": 4.4724470
},
{
  "type": "node",
  "id": 7599671075,
  "lat": 51.0708641,
  "lon": 4.4722535
},
{
  "type": "node",
  "id": 8104977790,
  "lat": 51.0716006,
  "lon": 4.4749340
},
{
  "type": "node",
  "id": 140458399,
  "lat": 51.0745688,
  "lon": 4.4822869
},
{
  "type": "node",
  "id": 247944363,
  "lat": 51.0752862,
  "lon": 4.4787765
},
{
  "type": "node",
  "id": 1282650171,
  "lat": 51.0751825,
  "lon": 4.4789846
},
{
  "type": "node",
  "id": 1282650183,
  "lat": 51.0747971,
  "lon": 4.4819571
},
{
  "type": "node",
  "id": 1282650185,
  "lat": 51.0752136,
  "lon": 4.4813349
},
{
  "type": "node",
  "id": 1282650217,
  "lat": 51.0754052,
  "lon": 4.4809781
},
{
  "type": "node",
  "id": 1282650219,
  "lat": 51.0748554,
  "lon": 4.4799125
},
{
  "type": "node",
  "id": 1282650223,
  "lat": 51.0750436,
  "lon": 4.4793191
},
{
  "type": "node",
  "id": 1282650225,
  "lat": 51.0748741,
  "lon": 4.4797747
},
{
  "type": "node",
  "id": 1282650226,
  "lat": 51.0751400,
  "lon": 4.4804749
},
{
  "type": "node",
  "id": 1282650284,
  "lat": 51.0748738,
  "lon": 4.4799832
},
{
  "type": "node",
  "id": 1282650285,
  "lat": 51.0754055,
  "lon": 4.4810760
},
{
  "type": "node",
  "id": 1302463123,
  "lat": 51.0828008,
  "lon": 4.4620225
},
{
  "type": "node",
  "id": 1302463194,
  "lat": 51.0836695,
  "lon": 4.4617202
},
{
  "type": "node",
  "id": 1376638496,
  "lat": 51.0823151,
  "lon": 4.4685066
},
{
  "type": "node",
  "id": 1376638499,
  "lat": 51.0825728,
  "lon": 4.4685453
},
{
  "type": "node",
  "id": 1376638500,
  "lat": 51.0828114,
  "lon": 4.4684401
},
{
  "type": "node",
  "id": 1376638502,
  "lat": 51.0830505,
  "lon": 4.4683935
},
{
  "type": "node",
  "id": 1376638503,
  "lat": 51.0833753,
  "lon": 4.4683562
},
{
  "type": "node",
  "id": 1376638505,
  "lat": 51.0834889,
  "lon": 4.4685476
},
{
  "type": "node",
  "id": 1376638507,
  "lat": 51.0837279,
  "lon": 4.4684791
},
{
  "type": "node",
  "id": 1376638509,
  "lat": 51.0839698,
  "lon": 4.4685028
},
{
  "type": "node",
  "id": 1376638510,
  "lat": 51.0842681,
  "lon": 4.4683610
},
{
  "type": "node",
  "id": 1376638511,
  "lat": 51.0847727,
  "lon": 4.4683122
},
{
  "type": "node",
  "id": 1376638512,
  "lat": 51.0852893,
  "lon": 4.4682543
},
{
  "type": "node",
  "id": 1376638514,
  "lat": 51.0856783,
  "lon": 4.4683534
},
{
  "type": "node",
  "id": 1376638528,
  "lat": 51.0859713,
  "lon": 4.4681745
},
{
  "type": "node",
  "id": 2852646926,
  "lat": 51.0837644,
  "lon": 4.4684827
},
{
  "type": "node",
  "id": 7417908199,
  "lat": 51.0826765,
  "lon": 4.4684996
},
{
  "type": "node",
  "id": 7417908200,
  "lat": 51.0825976,
  "lon": 4.4685343
}

  ]
}
